{"center": {"lat": "54.597419", "lng": "-5.930089"}, "bounds": {"north": "54.62671", "south": "54.576898", "west": "-5.977877", "east": "-5.888638"}, "sounds": [{"filename": "STE-001_by_the_peace_wall.wav", "pos": {"lat": 54.601096, "lng": -5.956825}, "descrip": "black taxi tour group", "place": "Peace Wall"}, {"filename": "vlog_peaceWalls.wav", "pos": {"lat": 54.600934, "lng": -5.956278}, "descrip": "Belfast vlog from American Youtuber AndrewHed.", "place": "Peace Wall"}, {"filename": "Britain_First_Jayda_Fransen_In_Belfast_At_The_PEACE_WALL.mp3", "pos": {"lat": 54.600555, "lng": -5.954776}, "descrip": "Jayda Fransen, deputy leader of Britain First, a far-right political organizaiton.", "place": "Peace Wall"}, {"filename": "Poet_Michael_Longley_reading_his_poem_Ceasefire.mp3", "pos": {"lat": 54.601122, "lng": -5.957494}, "descrip": "\"CeaseFire\" by Michael Longely, published 1994.", "place": "Bombay Street Memorial Garden, on the Catholic side of peace wall"}, {"filename": "Bap_Kennedy_-_The_Shankill_and_The_Falls.mp3", "pos": {"lat": 54.603835, "lng": -5.945135}, "descrip": "\"Shankill Butchers\" by the American Band The Decemberists", "place": "Shankill Road"}, {"filename": "Bap_Kennedy_-_The_Shankill_and_The_Falls.mp3", "pos": {"lat": 54.60078, "lng": -5.947223}, "descrip": "\"Shankill and the Falls\" by Bap Kenedy, 1998.", "place": "Northumberland Street, which most directly connects the Falls and Shankill Road"}, {"filename": "Belfast_Confetti_read_by_Ciaran_Carson_(AQA_Conflict_Anthology).pm3", "pos": {"lat": 54.598325, "lng": -5.954417}, "descrip": "\"Belfast Confetti\" by Ciaran Carson, published 1989.", "place": "Odessa Street."}, {"filename": "ritaDuffy-art.wav", "pos": {"lat": 54.594337, "lng": -5.956903}, "descrip": "Artist Rita Duffy reflects on the art of the Troubles.", "place": "Falls Road, where Duffy attended grammar school."}, {"filename": "Man_In_The_Moon_by_Pearse_Elliott.mp3", "pos": {"lat": 54.576433, "lng": -6.014745}, "descrip": "\"Man in the Moon\" by Pearce Elliot. \"It is based on a true story, on a family I actually knew, where two out of the three boys took their own lives.\"", "place": "Roddy McCorley's, where the play opened"}, {"filename": "STE-002_anotherRoad.wav", "pos": {"lat": 54.590495, "lng": -5.936871}, "descrip": "An ordinary day. An ordinary road.", "place": "Sandy Row"}, {"filename": "STE-009_home.wav", "pos": {"lat": 54.597055, "lng": -5.932865}, "descrip": "\"All-day join offering caf\u00e9 and bistro menus alongside the sale of art and second-hand furniture.\"", "place": "Home Restaurant"}, {"filename": "", "pos": {"lat": 54.599006, "lng": -5.925898}, "descrip": "\"A lively new fish & chip restaurant & take away newly opened in Belfast's city centre.\"", "place": "Fish City"}, {"filename": "peterRichards.wav", "pos": {"lat": 54.596734, "lng": -5.929038}, "descrip": "Artist Peter Richards reflects on the art of the Troubles.", "place": "City Hall, Titanic Memorial"}, {"filename": "SYND04-03-72_BELFAST_RESTAURANT_BLOWN_UP_KILLING_TWO_AND_INJURING_100_PEOPLE.mp3", "pos": {"lat": 54.598584, "lng": -5.928321}, "descrip": "A car bomb was set off in 1972.", "place": "Former site of the Abercorn Restaurant."}, {"filename": "vlog_peaceWalls_victoriaSquare.wav", "pos": {"lat": 54.598246, "lng": -5.925162}, "descrip": "Belfast vlog from American Youtuber AndrewHed.", "place": "Under the Victoria Square Mall dome."}, {"filename": "STE-003_tourist-place.wav", "pos": {"lat": 54.600584, "lng": -5.932928}, "descrip": "Listening to a radio of a souvenir shop from the street.", "place": "Castle Court Shopping Center"}, {"filename": "John_Hewitt_Poem_Ben_Maier_and_Tony_Kennedy.wav", "pos": {"lat": 54.602064, "lng": -5.928641}, "descrip": "\"An Irishman in Coventry\" by Belfast poet John Hewitt.", "place": "The John Hewitt Rastaurant and Bar"}, {"filename": "maryMcintyre.wav", "pos": {"lat": 54.601598, "lng": -5.927767}, "descrip": "Artist Mary McIntyre reflects on the art of the Troubles.", "place": "Belfast Film Festival venue"}, {"filename": "STE-004_MACsing.wav", "pos": {"lat": 54.603812, "lng": -5.927321}, "descrip": "Choir music from a nearby church is heard from inside the MAC", "place": "The MAC"}, {"filename": "some_road_i_guess.wav", "pos": {"lat": 54.593061, "lng": -5.925218}, "descrip": "An ordinary day. An ordinary road.", "place": ""}, {"filename": "STE-008_outside-police-acadeny.wav", "pos": {"lat": 54.588964, "lng": -5.910649}, "descrip": "An ordinary day. An ordinary road.", "place": ""}, {"filename": "Orangefield.mp3", "pos": {"lat": 54.581805, "lng": -5.891454}, "descrip": "\"Orangefield\" by Van Morrison. On \"a golden Autumn day\" in the park, Morrison reflects on lost love of old. Nearby down Orangfield Cresent, is his old high school.", "place": ""}]}